header: 
  seq: 343
  stamp: 
    secs: 1604025492
    nsecs: 885437012
  frame_id: "/camera_init"
child_frame_id: "/aft_mapped"
pose: 
  pose: 
    position: 
      x: 0.0170836579055
      y: -0.0117738088593
      z: 0.0203409045935
    orientation: 
      x: -0.00235167195896
      y: 0.00101417832714
      z: -0.0178436103979
      w: 0.999837510123
  covariance: [0.0, 0.0, 0.0, 0.0, 0.0, 0.0, 0.0, 0.0, 0.0, 0.0, 0.0, 0.0, 0.0, 0.0, 0.0, 0.0, 0.0, 0.0, 0.0, 0.0, 0.0, 0.0, 0.0, 0.0, 0.0, 0.0, 0.0, 0.0, 0.0, 0.0, 0.0, 0.0, 0.0, 0.0, 0.0, 0.0]
twist: 
  twist: 
    linear: 
      x: -0.698864817619
      y: -2.23844122887
      z: -0.869423091412
    angular: 
      x: 0.198377996683
      y: 0.350847959518
      z: -0.45895704627
  covariance: [0.0, 0.0, 0.0, 0.0, 0.0, 0.0, 0.0, 0.0, 0.0, 0.0, 0.0, 0.0, 0.0, 0.0, 0.0, 0.0, 0.0, 0.0, 0.0, 0.0, 0.0, 0.0, 0.0, 0.0, 0.0, 0.0, 0.0, 0.0, 0.0, 0.0, 0.0, 0.0, 0.0, 0.0, 0.0, 0.0]
---
header: 
  seq: 344
  stamp: 
    secs: 1604025493
    nsecs:  87209940
  frame_id: "/camera_init"
child_frame_id: "/aft_mapped"
pose: 
  pose: 
    position: 
      x: 0.0182906724513
      y: -0.0090233432129
      z: 0.0238888785243
    orientation: 
      x: -0.00242596487714
      y: 0.00103615238905
      z: -0.0176130289905
      w: 0.999841398569
  covariance: [0.0, 0.0, 0.0, 0.0, 0.0, 0.0, 0.0, 0.0, 0.0, 0.0, 0.0, 0.0, 0.0, 0.0, 0.0, 0.0, 0.0, 0.0, 0.0, 0.0, 0.0, 0.0, 0.0, 0.0, 0.0, 0.0, 0.0, 0.0, 0.0, 0.0, 0.0, 0.0, 0.0, 0.0, 0.0, 0.0]
twist: 
  twist: 
    linear: 
      x: -0.707030892372
      y: -2.25229454041
      z: -0.877309858799
    angular: 
      x: 0.199376761913
      y: 0.351308047771
      z: -0.459185302258
  covariance: [0.0, 0.0, 0.0, 0.0, 0.0, 0.0, 0.0, 0.0, 0.0, 0.0, 0.0, 0.0, 0.0, 0.0, 0.0, 0.0, 0.0, 0.0, 0.0, 0.0, 0.0, 0.0, 0.0, 0.0, 0.0, 0.0, 0.0, 0.0, 0.0, 0.0, 0.0, 0.0, 0.0, 0.0, 0.0, 0.0]
---
header: 
  seq: 345
  stamp: 
    secs: 1604025493
    nsecs: 288866043
  frame_id: "/camera_init"
child_frame_id: "/aft_mapped"
pose: 
  pose: 
    position: 
      x: 0.0174372680485
      y: -0.00557113671675
      z: 0.0284893382341
    orientation: 
      x: -0.0026337016448
      y: 0.00100364151869
      z: -0.0179373360432
      w: 0.999835140558
  covariance: [0.0, 0.0, 0.0, 0.0, 0.0, 0.0, 0.0, 0.0, 0.0, 0.0, 0.0, 0.0, 0.0, 0.0, 0.0, 0.0, 0.0, 0.0, 0.0, 0.0, 0.0, 0.0, 0.0, 0.0, 0.0, 0.0, 0.0, 0.0, 0.0, 0.0, 0.0, 0.0, 0.0, 0.0, 0.0, 0.0]
twist: 
  twist: 
    linear: 
      x: -0.71077901125
      y: -2.26334309578
      z: -0.87782728672
    angular: 
      x: 0.199856132269
      y: 0.351978778839
      z: -0.459524065256
  covariance: [0.0, 0.0, 0.0, 0.0, 0.0, 0.0, 0.0, 0.0, 0.0, 0.0, 0.0, 0.0, 0.0, 0.0, 0.0, 0.0, 0.0, 0.0, 0.0, 0.0, 0.0, 0.0, 0.0, 0.0, 0.0, 0.0, 0.0, 0.0, 0.0, 0.0, 0.0, 0.0, 0.0, 0.0, 0.0, 0.0]
---
header: 
  seq: 346
  stamp: 
    secs: 1604025493
    nsecs: 490609884
  frame_id: "/camera_init"
child_frame_id: "/aft_mapped"
pose: 
  pose: 
    position: 
      x: 0.0173679273576
      y: -0.00263719679788
      z: 0.0320777408779
    orientation: 
      x: -0.00271990346397
      y: 0.00101570008045
      z: -0.0177201612671
      w: 0.999838770184
  covariance: [0.0, 0.0, 0.0, 0.0, 0.0, 0.0, 0.0, 0.0, 0.0, 0.0, 0.0, 0.0, 0.0, 0.0, 0.0, 0.0, 0.0, 0.0, 0.0, 0.0, 0.0, 0.0, 0.0, 0.0, 0.0, 0.0, 0.0, 0.0, 0.0, 0.0, 0.0, 0.0, 0.0, 0.0, 0.0, 0.0]
twist: 
  twist: 
    linear: 
      x: -0.709820210934
      y: -2.27177071571
      z: -0.871972024441
    angular: 
      x: 0.200023546815
      y: 0.352856040001
      z: -0.459573000669
  covariance: [0.0, 0.0, 0.0, 0.0, 0.0, 0.0, 0.0, 0.0, 0.0, 0.0, 0.0, 0.0, 0.0, 0.0, 0.0, 0.0, 0.0, 0.0, 0.0, 0.0, 0.0, 0.0, 0.0, 0.0, 0.0, 0.0, 0.0, 0.0, 0.0, 0.0, 0.0, 0.0, 0.0, 0.0, 0.0, 0.0]
---
header: 
  seq: 347
  stamp: 
    secs: 1604025493
    nsecs: 692302942
  frame_id: "/camera_init"
child_frame_id: "/aft_mapped"
pose: 
  pose: 
    position: 
      x: 0.0177439171821
      y: -0.0134956128895
      z: 0.0152685958892
    orientation: 
      x: -0.00262859825578
      y: 0.0010307693852
      z: -0.0177898490855
      w: 0.999837761467
  covariance: [0.0, 0.0, 0.0, 0.0, 0.0, 0.0, 0.0, 0.0, 0.0, 0.0, 0.0, 0.0, 0.0, 0.0, 0.0, 0.0, 0.0, 0.0, 0.0, 0.0, 0.0, 0.0, 0.0, 0.0, 0.0, 0.0, 0.0, 0.0, 0.0, 0.0, 0.0, 0.0, 0.0, 0.0, 0.0, 0.0]
twist: 
  twist: 
    linear: 
      x: -0.716684758663
      y: -2.2844414711
      z: -0.878134429455
    angular: 
      x: 0.200188606977
      y: 0.353649765253
      z: -0.459389865398
  covariance: [0.0, 0.0, 0.0, 0.0, 0.0, 0.0, 0.0, 0.0, 0.0, 0.0, 0.0, 0.0, 0.0, 0.0, 0.0, 0.0, 0.0, 0.0, 0.0, 0.0, 0.0, 0.0, 0.0, 0.0, 0.0, 0.0, 0.0, 0.0, 0.0, 0.0, 0.0, 0.0, 0.0, 0.0, 0.0, 0.0]
---
header: 
  seq: 348
  stamp: 
    secs: 1604025493
    nsecs: 894016981
  frame_id: "/camera_init"
child_frame_id: "/aft_mapped"
pose: 
  pose: 
    position: 
      x: 0.0179178081453
      y: -0.0108163664117
      z: 0.0189850144088
    orientation: 
      x: -0.00256027321631
      y: 0.000974765440606
      z: -0.0173893124131
      w: 0.999845041318
  covariance: [0.0, 0.0, 0.0, 0.0, 0.0, 0.0, 0.0, 0.0, 0.0, 0.0, 0.0, 0.0, 0.0, 0.0, 0.0, 0.0, 0.0, 0.0, 0.0, 0.0, 0.0, 0.0, 0.0, 0.0, 0.0, 0.0, 0.0, 0.0, 0.0, 0.0, 0.0, 0.0, 0.0, 0.0, 0.0, 0.0]
twist: 
  twist: 
    linear: 
      x: -0.719312667847
      y: -2.29370880127
      z: -0.878464639187
    angular: 
      x: 0.200391486287
      y: 0.35449886322
      z: -0.459577769041
  covariance: [0.0, 0.0, 0.0, 0.0, 0.0, 0.0, 0.0, 0.0, 0.0, 0.0, 0.0, 0.0, 0.0, 0.0, 0.0, 0.0, 0.0, 0.0, 0.0, 0.0, 0.0, 0.0, 0.0, 0.0, 0.0, 0.0, 0.0, 0.0, 0.0, 0.0, 0.0, 0.0, 0.0, 0.0, 0.0, 0.0]
---
header: 
  seq: 349
  stamp: 
    secs: 1604025494
    nsecs:  95782995
  frame_id: "/camera_init"
child_frame_id: "/aft_mapped"
pose: 
  pose: 
    position: 
      x: 0.0201655738056
      y: -0.00551528157666
      z: 0.0216875616461
    orientation: 
      x: -0.00285112655372
      y: 0.00102061194254
      z: -0.0173594406726
      w: 0.999844727569
  covariance: [0.0, 0.0, 0.0, 0.0, 0.0, 0.0, 0.0, 0.0, 0.0, 0.0, 0.0, 0.0, 0.0, 0.0, 0.0, 0.0, 0.0, 0.0, 0.0, 0.0, 0.0, 0.0, 0.0, 0.0, 0.0, 0.0, 0.0, 0.0, 0.0, 0.0, 0.0, 0.0, 0.0, 0.0, 0.0, 0.0]
twist: 
  twist: 
    linear: 
      x: -0.724862039089
      y: -2.30051279068
      z: -0.890484273434
    angular: 
      x: 0.199769541621
      y: 0.355749666691
      z: -0.459273159504
  covariance: [0.0, 0.0, 0.0, 0.0, 0.0, 0.0, 0.0, 0.0, 0.0, 0.0, 0.0, 0.0, 0.0, 0.0, 0.0, 0.0, 0.0, 0.0, 0.0, 0.0, 0.0, 0.0, 0.0, 0.0, 0.0, 0.0, 0.0, 0.0, 0.0, 0.0, 0.0, 0.0, 0.0, 0.0, 0.0, 0.0]
---
header: 
  seq: 350
  stamp: 
    secs: 1604025494
    nsecs: 297454119
  frame_id: "/camera_init"
child_frame_id: "/aft_mapped"
pose: 
  pose: 
    position: 
      x: 0.0177029725164
      y: -0.0033837526571
      z: 0.0250003468245
    orientation: 
      x: -0.00258719489211
      y: 0.0009208946741
      z: -0.0174776662884
      w: 0.999843482529
  covariance: [0.0, 0.0, 0.0, 0.0, 0.0, 0.0, 0.0, 0.0, 0.0, 0.0, 0.0, 0.0, 0.0, 0.0, 0.0, 0.0, 0.0, 0.0, 0.0, 0.0, 0.0, 0.0, 0.0, 0.0, 0.0, 0.0, 0.0, 0.0, 0.0, 0.0, 0.0, 0.0, 0.0, 0.0, 0.0, 0.0]
twist: 
  twist: 
    linear: 
      x: -0.723709225655
      y: -2.29810929298
      z: -0.895686089993
    angular: 
      x: 0.198607742786
      y: 0.356847465038
      z: -0.458236426115
  covariance: [0.0, 0.0, 0.0, 0.0, 0.0, 0.0, 0.0, 0.0, 0.0, 0.0, 0.0, 0.0, 0.0, 0.0, 0.0, 0.0, 0.0, 0.0, 0.0, 0.0, 0.0, 0.0, 0.0, 0.0, 0.0, 0.0, 0.0, 0.0, 0.0, 0.0, 0.0, 0.0, 0.0, 0.0, 0.0, 0.0]
---
header: 
  seq: 351
  stamp: 
    secs: 1604025494
    nsecs: 499178886
  frame_id: "/camera_init"
child_frame_id: "/aft_mapped"
pose: 
  pose: 
    position: 
      x: 0.0178138744086
      y: -0.00137140322477
      z: 0.028123864904
    orientation: 
      x: -0.00254790040207
      y: 0.000986572900163
      z: -0.0175214295925
      w: 0.999842754828
  covariance: [0.0, 0.0, 0.0, 0.0, 0.0, 0.0, 0.0, 0.0, 0.0, 0.0, 0.0, 0.0, 0.0, 0.0, 0.0, 0.0, 0.0, 0.0, 0.0, 0.0, 0.0, 0.0, 0.0, 0.0, 0.0, 0.0, 0.0, 0.0, 0.0, 0.0, 0.0, 0.0, 0.0, 0.0, 0.0, 0.0]
twist: 
  twist: 
    linear: 
      x: -0.719889819622
      y: -2.29375886917
      z: -0.895809173584
    angular: 
      x: 0.197719693184
      y: 0.358261197805
      z: -0.457211077213
  covariance: [0.0, 0.0, 0.0, 0.0, 0.0, 0.0, 0.0, 0.0, 0.0, 0.0, 0.0, 0.0, 0.0, 0.0, 0.0, 0.0, 0.0, 0.0, 0.0, 0.0, 0.0, 0.0, 0.0, 0.0, 0.0, 0.0, 0.0, 0.0, 0.0, 0.0, 0.0, 0.0, 0.0, 0.0, 0.0, 0.0]
---
header: 
  seq: 352
  stamp: 
    secs: 1604025494
    nsecs: 700925112
  frame_id: "/camera_init"
child_frame_id: "/aft_mapped"
pose: 
  pose: 
    position: 
      x: 0.0189554896206
      y: -0.0104468427598
      z: 0.0167436115444
    orientation: 
      x: -0.00262857213549
      y: 0.00101339250284
      z: -0.0174910097875
      w: 0.999843051794
  covariance: [0.0, 0.0, 0.0, 0.0, 0.0, 0.0, 0.0, 0.0, 0.0, 0.0, 0.0, 0.0, 0.0, 0.0, 0.0, 0.0, 0.0, 0.0, 0.0, 0.0, 0.0, 0.0, 0.0, 0.0, 0.0, 0.0, 0.0, 0.0, 0.0, 0.0, 0.0, 0.0, 0.0, 0.0, 0.0, 0.0]
twist: 
  twist: 
    linear: 
      x: -0.723804056644
      y: -2.29480576515
      z: -0.904979288578
    angular: 
      x: 0.196373552084
      y: 0.35984185338
      z: -0.456804603338
  covariance: [0.0, 0.0, 0.0, 0.0, 0.0, 0.0, 0.0, 0.0, 0.0, 0.0, 0.0, 0.0, 0.0, 0.0, 0.0, 0.0, 0.0, 0.0, 0.0, 0.0, 0.0, 0.0, 0.0, 0.0, 0.0, 0.0, 0.0, 0.0, 0.0, 0.0, 0.0, 0.0, 0.0, 0.0, 0.0, 0.0]
---
header: 
  seq: 353
  stamp: 
    secs: 1604025494
    nsecs: 902710915
  frame_id: "/camera_init"
child_frame_id: "/aft_mapped"
pose: 
  pose: 
    position: 
      x: 0.0207847207785
      y: 0.00429393723607
      z: 0.0349964015186
    orientation: 
      x: -0.00259396304685
      y: 0.00114406265967
      z: -0.0173415059514
      w: 0.999845605405
  covariance: [0.0, 0.0, 0.0, 0.0, 0.0, 0.0, 0.0, 0.0, 0.0, 0.0, 0.0, 0.0, 0.0, 0.0, 0.0, 0.0, 0.0, 0.0, 0.0, 0.0, 0.0, 0.0, 0.0, 0.0, 0.0, 0.0, 0.0, 0.0, 0.0, 0.0, 0.0, 0.0, 0.0, 0.0, 0.0, 0.0]
twist: 
  twist: 
    linear: 
      x: -0.724232375622
      y: -2.29466319084
      z: -0.910373926163
    angular: 
      x: 0.194617807865
      y: 0.361585050821
      z: -0.456951797009
  covariance: [0.0, 0.0, 0.0, 0.0, 0.0, 0.0, 0.0, 0.0, 0.0, 0.0, 0.0, 0.0, 0.0, 0.0, 0.0, 0.0, 0.0, 0.0, 0.0, 0.0, 0.0, 0.0, 0.0, 0.0, 0.0, 0.0, 0.0, 0.0, 0.0, 0.0, 0.0, 0.0, 0.0, 0.0, 0.0, 0.0]
---
header: 
  seq: 354
  stamp: 
    secs: 1604025495
    nsecs: 104382992
  frame_id: "/camera_init"
child_frame_id: "/aft_mapped"
pose: 
  pose: 
    position: 
      x: 0.0194677487016
      y: -0.0100126657635
      z: 0.016120987013
    orientation: 
      x: -0.00234928813561
      y: 0.000981745285871
      z: -0.0175672039671
      w: 0.999842442771
  covariance: [0.0, 0.0, 0.0, 0.0, 0.0, 0.0, 0.0, 0.0, 0.0, 0.0, 0.0, 0.0, 0.0, 0.0, 0.0, 0.0, 0.0, 0.0, 0.0, 0.0, 0.0, 0.0, 0.0, 0.0, 0.0, 0.0, 0.0, 0.0, 0.0, 0.0, 0.0, 0.0, 0.0, 0.0, 0.0, 0.0]
twist: 
  twist: 
    linear: 
      x: -0.726471066475
      y: -2.29328918457
      z: -0.915691912174
    angular: 
      x: 0.19455358386
      y: 0.362482517958
      z: -0.457444757223
  covariance: [0.0, 0.0, 0.0, 0.0, 0.0, 0.0, 0.0, 0.0, 0.0, 0.0, 0.0, 0.0, 0.0, 0.0, 0.0, 0.0, 0.0, 0.0, 0.0, 0.0, 0.0, 0.0, 0.0, 0.0, 0.0, 0.0, 0.0, 0.0, 0.0, 0.0, 0.0, 0.0, 0.0, 0.0, 0.0, 0.0]
---
header: 
  seq: 355
  stamp: 
    secs: 1604025495
    nsecs: 306044102
  frame_id: "/camera_init"
child_frame_id: "/aft_mapped"
pose: 
  pose: 
    position: 
      x: 0.0182322300971
      y: -0.00930112041533
      z: 0.0170582327992
    orientation: 
      x: -0.00230278357174
      y: 0.000874468804196
      z: -0.017257886742
      w: 0.999848037372
  covariance: [0.0, 0.0, 0.0, 0.0, 0.0, 0.0, 0.0, 0.0, 0.0, 0.0, 0.0, 0.0, 0.0, 0.0, 0.0, 0.0, 0.0, 0.0, 0.0, 0.0, 0.0, 0.0, 0.0, 0.0, 0.0, 0.0, 0.0, 0.0, 0.0, 0.0, 0.0, 0.0, 0.0, 0.0, 0.0, 0.0]
twist: 
  twist: 
    linear: 
      x: -0.729501008987
      y: -2.29043674469
      z: -0.920308053493
    angular: 
      x: 0.194329798222
      y: 0.363109201193
      z: -0.458293944597
  covariance: [0.0, 0.0, 0.0, 0.0, 0.0, 0.0, 0.0, 0.0, 0.0, 0.0, 0.0, 0.0, 0.0, 0.0, 0.0, 0.0, 0.0, 0.0, 0.0, 0.0, 0.0, 0.0, 0.0, 0.0, 0.0, 0.0, 0.0, 0.0, 0.0, 0.0, 0.0, 0.0, 0.0, 0.0, 0.0, 0.0]
---
header: 
  seq: 356
  stamp: 
    secs: 1604025495
    nsecs: 507801056
  frame_id: "/camera_init"
child_frame_id: "/aft_mapped"
pose: 
  pose: 
    position: 
      x: 0.0177830923349
      y: -0.00539205037057
      z: 0.0236158967018
    orientation: 
      x: -0.0023890451583
      y: 0.000942706755765
      z: -0.0174787688313
      w: 0.999843936026
  covariance: [0.0, 0.0, 0.0, 0.0, 0.0, 0.0, 0.0, 0.0, 0.0, 0.0, 0.0, 0.0, 0.0, 0.0, 0.0, 0.0, 0.0, 0.0, 0.0, 0.0, 0.0, 0.0, 0.0, 0.0, 0.0, 0.0, 0.0, 0.0, 0.0, 0.0, 0.0, 0.0, 0.0, 0.0, 0.0, 0.0]
twist: 
  twist: 
    linear: 
      x: -0.739626944065
      y: -2.29313921928
      z: -0.937080681324
    angular: 
      x: 0.194809451699
      y: 0.363009303808
      z: -0.458618074656
  covariance: [0.0, 0.0, 0.0, 0.0, 0.0, 0.0, 0.0, 0.0, 0.0, 0.0, 0.0, 0.0, 0.0, 0.0, 0.0, 0.0, 0.0, 0.0, 0.0, 0.0, 0.0, 0.0, 0.0, 0.0, 0.0, 0.0, 0.0, 0.0, 0.0, 0.0, 0.0, 0.0, 0.0, 0.0, 0.0, 0.0]
---
header: 
  seq: 357
  stamp: 
    secs: 1604025495
    nsecs: 709505081
  frame_id: "/camera_init"
child_frame_id: "/aft_mapped"
pose: 
  pose: 
    position: 
      x: 0.018191780895
      y: -0.00301125016995
      z: 0.0246466193348
    orientation: 
      x: -0.00261362138857
      y: 0.000867933277816
      z: -0.0173176160356
      w: 0.999846246105
  covariance: [0.0, 0.0, 0.0, 0.0, 0.0, 0.0, 0.0, 0.0, 0.0, 0.0, 0.0, 0.0, 0.0, 0.0, 0.0, 0.0, 0.0, 0.0, 0.0, 0.0, 0.0, 0.0, 0.0, 0.0, 0.0, 0.0, 0.0, 0.0, 0.0, 0.0, 0.0, 0.0, 0.0, 0.0, 0.0, 0.0]
twist: 
  twist: 
    linear: 
      x: -0.745867013931
      y: -2.29322981834
      z: -0.947608709335
    angular: 
      x: 0.195106446743
      y: 0.363099515438
      z: -0.458896845579
  covariance: [0.0, 0.0, 0.0, 0.0, 0.0, 0.0, 0.0, 0.0, 0.0, 0.0, 0.0, 0.0, 0.0, 0.0, 0.0, 0.0, 0.0, 0.0, 0.0, 0.0, 0.0, 0.0, 0.0, 0.0, 0.0, 0.0, 0.0, 0.0, 0.0, 0.0, 0.0, 0.0, 0.0, 0.0, 0.0, 0.0]
---
header: 
  seq: 358
  stamp: 
    secs: 1604025495
    nsecs: 911221027
  frame_id: "/camera_init"
child_frame_id: "/aft_mapped"
pose: 
  pose: 
    position: 
      x: 0.0177318900824
      y: -0.0135441878811
      z: 0.00988943874836
    orientation: 
      x: -0.00254783920586
      y: 0.00086644669815
      z: -0.0174852707338
      w: 0.9998434993
  covariance: [0.0, 0.0, 0.0, 0.0, 0.0, 0.0, 0.0, 0.0, 0.0, 0.0, 0.0, 0.0, 0.0, 0.0, 0.0, 0.0, 0.0, 0.0, 0.0, 0.0, 0.0, 0.0, 0.0, 0.0, 0.0, 0.0, 0.0, 0.0, 0.0, 0.0, 0.0, 0.0, 0.0, 0.0, 0.0, 0.0]
twist: 
  twist: 
    linear: 
      x: -0.760343492031
      y: -2.29815411568
      z: -0.967132151127
    angular: 
      x: 0.194909438491
      y: 0.363499224186
      z: -0.459388881922
  covariance: [0.0, 0.0, 0.0, 0.0, 0.0, 0.0, 0.0, 0.0, 0.0, 0.0, 0.0, 0.0, 0.0, 0.0, 0.0, 0.0, 0.0, 0.0, 0.0, 0.0, 0.0, 0.0, 0.0, 0.0, 0.0, 0.0, 0.0, 0.0, 0.0, 0.0, 0.0, 0.0, 0.0, 0.0, 0.0, 0.0]
---
header: 
  seq: 359
  stamp: 
    secs: 1604025496
    nsecs: 112951994
  frame_id: "/camera_init"
child_frame_id: "/aft_mapped"
pose: 
  pose: 
    position: 
      x: 0.0181076005101
      y: -0.0104608889669
      z: 0.0124819427729
    orientation: 
      x: -0.00283574645629
      y: 0.000981468395698
      z: -0.0174052297879
      w: 0.999844014453
  covariance: [0.0, 0.0, 0.0, 0.0, 0.0, 0.0, 0.0, 0.0, 0.0, 0.0, 0.0, 0.0, 0.0, 0.0, 0.0, 0.0, 0.0, 0.0, 0.0, 0.0, 0.0, 0.0, 0.0, 0.0, 0.0, 0.0, 0.0, 0.0, 0.0, 0.0, 0.0, 0.0, 0.0, 0.0, 0.0, 0.0]
twist: 
  twist: 
    linear: 
      x: -0.768197536469
      y: -2.3011238575
      z: -0.975546598434
    angular: 
      x: 0.194186866283
      y: 0.364934414625
      z: -0.459923505783
  covariance: [0.0, 0.0, 0.0, 0.0, 0.0, 0.0, 0.0, 0.0, 0.0, 0.0, 0.0, 0.0, 0.0, 0.0, 0.0, 0.0, 0.0, 0.0, 0.0, 0.0, 0.0, 0.0, 0.0, 0.0, 0.0, 0.0, 0.0, 0.0, 0.0, 0.0, 0.0, 0.0, 0.0, 0.0, 0.0, 0.0]
---
header: 
  seq: 360
  stamp: 
    secs: 1604025496
    nsecs: 314702988
  frame_id: "/camera_init"
child_frame_id: "/aft_mapped"
pose: 
  pose: 
    position: 
      x: 0.0177723616362
      y: -0.00730944797397
      z: 0.020029604435
    orientation: 
      x: -0.00282491983749
      y: 0.000859426649703
      z: -0.017391812532
      w: 0.999844390928
  covariance: [0.0, 0.0, 0.0, 0.0, 0.0, 0.0, 0.0, 0.0, 0.0, 0.0, 0.0, 0.0, 0.0, 0.0, 0.0, 0.0, 0.0, 0.0, 0.0, 0.0, 0.0, 0.0, 0.0, 0.0, 0.0, 0.0, 0.0, 0.0, 0.0, 0.0, 0.0, 0.0, 0.0, 0.0, 0.0, 0.0]
twist: 
  twist: 
    linear: 
      x: -0.77672547102
      y: -2.30912828445
      z: -0.984629929066
    angular: 
      x: 0.193542048335
      y: 0.36552798748
      z: -0.458537757397
  covariance: [0.0, 0.0, 0.0, 0.0, 0.0, 0.0, 0.0, 0.0, 0.0, 0.0, 0.0, 0.0, 0.0, 0.0, 0.0, 0.0, 0.0, 0.0, 0.0, 0.0, 0.0, 0.0, 0.0, 0.0, 0.0, 0.0, 0.0, 0.0, 0.0, 0.0, 0.0, 0.0, 0.0, 0.0, 0.0, 0.0]
---
header: 
  seq: 361
  stamp: 
    secs: 1604025496
    nsecs: 516401052
  frame_id: "/camera_init"
child_frame_id: "/aft_mapped"
pose: 
  pose: 
    position: 
      x: 0.0148167619482
      y: -0.00620334362611
      z: 0.0242030341178
    orientation: 
      x: -0.00263673502947
      y: 0.000738484641429
      z: -0.0176482705679
      w: 0.999840507688
  covariance: [0.0, 0.0, 0.0, 0.0, 0.0, 0.0, 0.0, 0.0, 0.0, 0.0, 0.0, 0.0, 0.0, 0.0, 0.0, 0.0, 0.0, 0.0, 0.0, 0.0, 0.0, 0.0, 0.0, 0.0, 0.0, 0.0, 0.0, 0.0, 0.0, 0.0, 0.0, 0.0, 0.0, 0.0, 0.0, 0.0]
twist: 
  twist: 
    linear: 
      x: -0.781256735325
      y: -2.31380653381
      z: -0.987959623337
    angular: 
      x: 0.193701982498
      y: 0.365419477224
      z: -0.457592338324
  covariance: [0.0, 0.0, 0.0, 0.0, 0.0, 0.0, 0.0, 0.0, 0.0, 0.0, 0.0, 0.0, 0.0, 0.0, 0.0, 0.0, 0.0, 0.0, 0.0, 0.0, 0.0, 0.0, 0.0, 0.0, 0.0, 0.0, 0.0, 0.0, 0.0, 0.0, 0.0, 0.0, 0.0, 0.0, 0.0, 0.0]
---
header: 
  seq: 362
  stamp: 
    secs: 1604025496
    nsecs: 718190908
  frame_id: "/camera_init"
child_frame_id: "/aft_mapped"
pose: 
  pose: 
    position: 
      x: 0.016436971724
      y: -0.0049158600159
      z: 0.0258572399616
    orientation: 
      x: -0.00271033002464
      y: 0.000786469202246
      z: -0.0174509684783
      w: 0.999843737429
  covariance: [0.0, 0.0, 0.0, 0.0, 0.0, 0.0, 0.0, 0.0, 0.0, 0.0, 0.0, 0.0, 0.0, 0.0, 0.0, 0.0, 0.0, 0.0, 0.0, 0.0, 0.0, 0.0, 0.0, 0.0, 0.0, 0.0, 0.0, 0.0, 0.0, 0.0, 0.0, 0.0, 0.0, 0.0, 0.0, 0.0]
twist: 
  twist: 
    linear: 
      x: -0.78159070015
      y: -2.31594872475
      z: -0.985876560211
    angular: 
      x: 0.193730056286
      y: 0.365601956844
      z: -0.456376463175
  covariance: [0.0, 0.0, 0.0, 0.0, 0.0, 0.0, 0.0, 0.0, 0.0, 0.0, 0.0, 0.0, 0.0, 0.0, 0.0, 0.0, 0.0, 0.0, 0.0, 0.0, 0.0, 0.0, 0.0, 0.0, 0.0, 0.0, 0.0, 0.0, 0.0, 0.0, 0.0, 0.0, 0.0, 0.0, 0.0, 0.0]
---
header: 
  seq: 363
  stamp: 
    secs: 1604025496
    nsecs: 919819117
  frame_id: "/camera_init"
child_frame_id: "/aft_mapped"
pose: 
  pose: 
    position: 
      x: 0.0159094464034
      y: -0.00322798639536
      z: 0.0269564148039
    orientation: 
      x: -0.00265862637451
      y: 0.000833825020449
      z: -0.0173950898385
      w: 0.999844811604
  covariance: [0.0, 0.0, 0.0, 0.0, 0.0, 0.0, 0.0, 0.0, 0.0, 0.0, 0.0, 0.0, 0.0, 0.0, 0.0, 0.0, 0.0, 0.0, 0.0, 0.0, 0.0, 0.0, 0.0, 0.0, 0.0, 0.0, 0.0, 0.0, 0.0, 0.0, 0.0, 0.0, 0.0, 0.0, 0.0, 0.0]
twist: 
  twist: 
    linear: 
      x: -0.778163135052
      y: -2.31574273109
      z: -0.978991627693
    angular: 
      x: 0.193772882223
      y: 0.365941256285
      z: -0.455384850502
  covariance: [0.0, 0.0, 0.0, 0.0, 0.0, 0.0, 0.0, 0.0, 0.0, 0.0, 0.0, 0.0, 0.0, 0.0, 0.0, 0.0, 0.0, 0.0, 0.0, 0.0, 0.0, 0.0, 0.0, 0.0, 0.0, 0.0, 0.0, 0.0, 0.0, 0.0, 0.0, 0.0, 0.0, 0.0, 0.0, 0.0]
---
header: 
  seq: 364
  stamp: 
    secs: 1604025497
    nsecs: 121588945
  frame_id: "/camera_init"
child_frame_id: "/aft_mapped"
pose: 
  pose: 
    position: 
      x: 0.015616630204
      y: -0.0134722366929
      z: 0.0132000502199
    orientation: 
      x: -0.00266013530709
      y: 0.000788575432217
      z: -0.01741516303
      w: 0.999844494872
  covariance: [0.0, 0.0, 0.0, 0.0, 0.0, 0.0, 0.0, 0.0, 0.0, 0.0, 0.0, 0.0, 0.0, 0.0, 0.0, 0.0, 0.0, 0.0, 0.0, 0.0, 0.0, 0.0, 0.0, 0.0, 0.0, 0.0, 0.0, 0.0, 0.0, 0.0, 0.0, 0.0, 0.0, 0.0, 0.0, 0.0]
twist: 
  twist: 
    linear: 
      x: -0.783120274544
      y: -2.32095885277
      z: -0.982302069664
    angular: 
      x: 0.193332418799
      y: 0.366312205791
      z: -0.45463296771
  covariance: [0.0, 0.0, 0.0, 0.0, 0.0, 0.0, 0.0, 0.0, 0.0, 0.0, 0.0, 0.0, 0.0, 0.0, 0.0, 0.0, 0.0, 0.0, 0.0, 0.0, 0.0, 0.0, 0.0, 0.0, 0.0, 0.0, 0.0, 0.0, 0.0, 0.0, 0.0, 0.0, 0.0, 0.0, 0.0, 0.0]
---
header: 
  seq: 365
  stamp: 
    secs: 1604025497
    nsecs: 323262930
  frame_id: "/camera_init"
child_frame_id: "/aft_mapped"
pose: 
  pose: 
    position: 
      x: 0.0145467976108
      y: -6.97932991898e-05
      z: 0.0315340049565
    orientation: 
      x: -0.00246749967942
      y: 0.000930597217438
      z: -0.0176160213831
      w: 0.999841348027
  covariance: [0.0, 0.0, 0.0, 0.0, 0.0, 0.0, 0.0, 0.0, 0.0, 0.0, 0.0, 0.0, 0.0, 0.0, 0.0, 0.0, 0.0, 0.0, 0.0, 0.0, 0.0, 0.0, 0.0, 0.0, 0.0, 0.0, 0.0, 0.0, 0.0, 0.0, 0.0, 0.0, 0.0, 0.0, 0.0, 0.0]
twist: 
  twist: 
    linear: 
      x: -0.774942159653
      y: -2.31671667099
      z: -0.966416239738
    angular: 
      x: 0.193842962384
      y: 0.366758495569
      z: -0.454356372356
  covariance: [0.0, 0.0, 0.0, 0.0, 0.0, 0.0, 0.0, 0.0, 0.0, 0.0, 0.0, 0.0, 0.0, 0.0, 0.0, 0.0, 0.0, 0.0, 0.0, 0.0, 0.0, 0.0, 0.0, 0.0, 0.0, 0.0, 0.0, 0.0, 0.0, 0.0, 0.0, 0.0, 0.0, 0.0, 0.0, 0.0]
---
header: 
  seq: 366
  stamp: 
    secs: 1604025497
    nsecs: 524962902
  frame_id: "/camera_init"
child_frame_id: "/aft_mapped"
pose: 
  pose: 
    position: 
      x: 0.0148127460852
      y: -0.0122712505981
      z: 0.0148376403376
    orientation: 
      x: -0.00238193903531
      y: 0.000921773979254
      z: -0.0177016923856
      w: 0.999840050601
  covariance: [0.0, 0.0, 0.0, 0.0, 0.0, 0.0, 0.0, 0.0, 0.0, 0.0, 0.0, 0.0, 0.0, 0.0, 0.0, 0.0, 0.0, 0.0, 0.0, 0.0, 0.0, 0.0, 0.0, 0.0, 0.0, 0.0, 0.0, 0.0, 0.0, 0.0, 0.0, 0.0, 0.0, 0.0, 0.0, 0.0]
twist: 
  twist: 
    linear: 
      x: -0.77798384428
      y: -2.3199031353
      z: -0.966730833054
    angular: 
      x: 0.195661067963
      y: 0.366982340813
      z: -0.454759389162
  covariance: [0.0, 0.0, 0.0, 0.0, 0.0, 0.0, 0.0, 0.0, 0.0, 0.0, 0.0, 0.0, 0.0, 0.0, 0.0, 0.0, 0.0, 0.0, 0.0, 0.0, 0.0, 0.0, 0.0, 0.0, 0.0, 0.0, 0.0, 0.0, 0.0, 0.0, 0.0, 0.0, 0.0, 0.0, 0.0, 0.0]
---
header: 
  seq: 367
  stamp: 
    secs: 1604025497
    nsecs: 726720095
  frame_id: "/camera_init"
child_frame_id: "/aft_mapped"
pose: 
  pose: 
    position: 
      x: 0.0146104814485
      y: -0.00890958681703
      z: 0.0196080710739
    orientation: 
      x: -0.0026505186915
      y: 0.000917965211681
      z: -0.0175068346244
      w: 0.999842809061
  covariance: [0.0, 0.0, 0.0, 0.0, 0.0, 0.0, 0.0, 0.0, 0.0, 0.0, 0.0, 0.0, 0.0, 0.0, 0.0, 0.0, 0.0, 0.0, 0.0, 0.0, 0.0, 0.0, 0.0, 0.0, 0.0, 0.0, 0.0, 0.0, 0.0, 0.0, 0.0, 0.0, 0.0, 0.0, 0.0, 0.0]
twist: 
  twist: 
    linear: 
      x: -0.788449645042
      y: -2.32811355591
      z: -0.977240204811
    angular: 
      x: 0.197157636285
      y: 0.367356151342
      z: -0.455137819052
  covariance: [0.0, 0.0, 0.0, 0.0, 0.0, 0.0, 0.0, 0.0, 0.0, 0.0, 0.0, 0.0, 0.0, 0.0, 0.0, 0.0, 0.0, 0.0, 0.0, 0.0, 0.0, 0.0, 0.0, 0.0, 0.0, 0.0, 0.0, 0.0, 0.0, 0.0, 0.0, 0.0, 0.0, 0.0, 0.0, 0.0]
---
header: 
  seq: 368
  stamp: 
    secs: 1604025497
    nsecs: 928452015
  frame_id: "/camera_init"
child_frame_id: "/aft_mapped"
pose: 
  pose: 
    position: 
      x: 0.0147752379999
      y: -0.00685359491035
      z: 0.0228169988841
    orientation: 
      x: -0.00263532196905
      y: 0.00102999641367
      z: -0.0175592469145
      w: 0.999841821006
  covariance: [0.0, 0.0, 0.0, 0.0, 0.0, 0.0, 0.0, 0.0, 0.0, 0.0, 0.0, 0.0, 0.0, 0.0, 0.0, 0.0, 0.0, 0.0, 0.0, 0.0, 0.0, 0.0, 0.0, 0.0, 0.0, 0.0, 0.0, 0.0, 0.0, 0.0, 0.0, 0.0, 0.0, 0.0, 0.0, 0.0]
twist: 
  twist: 
    linear: 
      x: -0.794398546219
      y: -2.33379888535
      z: -0.981152772903
    angular: 
      x: 0.1984911412
      y: 0.367848515511
      z: -0.455324262381
  covariance: [0.0, 0.0, 0.0, 0.0, 0.0, 0.0, 0.0, 0.0, 0.0, 0.0, 0.0, 0.0, 0.0, 0.0, 0.0, 0.0, 0.0, 0.0, 0.0, 0.0, 0.0, 0.0, 0.0, 0.0, 0.0, 0.0, 0.0, 0.0, 0.0, 0.0, 0.0, 0.0, 0.0, 0.0, 0.0, 0.0]
---
header: 
  seq: 369
  stamp: 
    secs: 1604025498
    nsecs: 130152941
  frame_id: "/camera_init"
child_frame_id: "/aft_mapped"
pose: 
  pose: 
    position: 
      x: 0.015054197982
      y: -0.0148174585775
      z: 0.010069723241
    orientation: 
      x: -0.00264837895958
      y: 0.000959178475278
      z: -0.0176149360097
      w: 0.999840877387
  covariance: [0.0, 0.0, 0.0, 0.0, 0.0, 0.0, 0.0, 0.0, 0.0, 0.0, 0.0, 0.0, 0.0, 0.0, 0.0, 0.0, 0.0, 0.0, 0.0, 0.0, 0.0, 0.0, 0.0, 0.0, 0.0, 0.0, 0.0, 0.0, 0.0, 0.0, 0.0, 0.0, 0.0, 0.0, 0.0, 0.0]
twist: 
  twist: 
    linear: 
      x: -0.806357681751
      y: -2.3438334465
      z: -0.99306666851
    angular: 
      x: 0.199543550611
      y: 0.368509322405
      z: -0.455540418625
  covariance: [0.0, 0.0, 0.0, 0.0, 0.0, 0.0, 0.0, 0.0, 0.0, 0.0, 0.0, 0.0, 0.0, 0.0, 0.0, 0.0, 0.0, 0.0, 0.0, 0.0, 0.0, 0.0, 0.0, 0.0, 0.0, 0.0, 0.0, 0.0, 0.0, 0.0, 0.0, 0.0, 0.0, 0.0, 0.0, 0.0]
---
header: 
  seq: 370
  stamp: 
    secs: 1604025498
    nsecs: 331903934
  frame_id: "/camera_init"
child_frame_id: "/aft_mapped"
pose: 
  pose: 
    position: 
      x: 0.0157069209963
      y: -0.00294243497774
      z: 0.0280387476087
    orientation: 
      x: -0.00275471831968
      y: 0.00107519965163
      z: -0.0175393879621
      w: 0.999841800158
  covariance: [0.0, 0.0, 0.0, 0.0, 0.0, 0.0, 0.0, 0.0, 0.0, 0.0, 0.0, 0.0, 0.0, 0.0, 0.0, 0.0, 0.0, 0.0, 0.0, 0.0, 0.0, 0.0, 0.0, 0.0, 0.0, 0.0, 0.0, 0.0, 0.0, 0.0, 0.0, 0.0, 0.0, 0.0, 0.0, 0.0]
twist: 
  twist: 
    linear: 
      x: -0.802952051163
      y: -2.34521651268
      z: -0.985042095184
    angular: 
      x: 0.200103923678
      y: 0.369376033545
      z: -0.455706804991
  covariance: [0.0, 0.0, 0.0, 0.0, 0.0, 0.0, 0.0, 0.0, 0.0, 0.0, 0.0, 0.0, 0.0, 0.0, 0.0, 0.0, 0.0, 0.0, 0.0, 0.0, 0.0, 0.0, 0.0, 0.0, 0.0, 0.0, 0.0, 0.0, 0.0, 0.0, 0.0, 0.0, 0.0, 0.0, 0.0, 0.0]
---
header: 
  seq: 371
  stamp: 
    secs: 1604025498
    nsecs: 533590078
  frame_id: "/camera_init"
child_frame_id: "/aft_mapped"
pose: 
  pose: 
    position: 
      x: 0.0153173627332
      y: -0.0134614743292
      z: 0.0101160882041
    orientation: 
      x: -0.00298446541526
      y: 0.00104497083102
      z: -0.0174030107372
      w: 0.999843555872
  covariance: [0.0, 0.0, 0.0, 0.0, 0.0, 0.0, 0.0, 0.0, 0.0, 0.0, 0.0, 0.0, 0.0, 0.0, 0.0, 0.0, 0.0, 0.0, 0.0, 0.0, 0.0, 0.0, 0.0, 0.0, 0.0, 0.0, 0.0, 0.0, 0.0, 0.0, 0.0, 0.0, 0.0, 0.0, 0.0, 0.0]
twist: 
  twist: 
    linear: 
      x: -0.808355927467
      y: -2.35264110565
      z: -0.989397466183
    angular: 
      x: 0.199906334281
      y: 0.37088111043
      z: -0.455724745989
  covariance: [0.0, 0.0, 0.0, 0.0, 0.0, 0.0, 0.0, 0.0, 0.0, 0.0, 0.0, 0.0, 0.0, 0.0, 0.0, 0.0, 0.0, 0.0, 0.0, 0.0, 0.0, 0.0, 0.0, 0.0, 0.0, 0.0, 0.0, 0.0, 0.0, 0.0, 0.0, 0.0, 0.0, 0.0, 0.0, 0.0]
---
header: 
  seq: 372
  stamp: 
    secs: 1604025498
    nsecs: 735320091
  frame_id: "/camera_init"
child_frame_id: "/aft_mapped"
pose: 
  pose: 
    position: 
      x: 0.0153012732044
      y: -0.0110516957939
      z: 0.0150822224095
    orientation: 
      x: -0.00300357001007
      y: 0.00102311529301
      z: -0.0173158377292
      w: 0.999845034776
  covariance: [0.0, 0.0, 0.0, 0.0, 0.0, 0.0, 0.0, 0.0, 0.0, 0.0, 0.0, 0.0, 0.0, 0.0, 0.0, 0.0, 0.0, 0.0, 0.0, 0.0, 0.0, 0.0, 0.0, 0.0, 0.0, 0.0, 0.0, 0.0, 0.0, 0.0, 0.0, 0.0, 0.0, 0.0, 0.0, 0.0]
twist: 
  twist: 
    linear: 
      x: -0.809791505337
      y: -2.35809803009
      z: -0.98805564642
    angular: 
      x: 0.199692770839
      y: 0.372368752956
      z: -0.455581605434
  covariance: [0.0, 0.0, 0.0, 0.0, 0.0, 0.0, 0.0, 0.0, 0.0, 0.0, 0.0, 0.0, 0.0, 0.0, 0.0, 0.0, 0.0, 0.0, 0.0, 0.0, 0.0, 0.0, 0.0, 0.0, 0.0, 0.0, 0.0, 0.0, 0.0, 0.0, 0.0, 0.0, 0.0, 0.0, 0.0, 0.0]
---
header: 
  seq: 373
  stamp: 
    secs: 1604025498
    nsecs: 937058926
  frame_id: "/camera_init"
child_frame_id: "/aft_mapped"
pose: 
  pose: 
    position: 
      x: 0.014500265941
      y: -0.00881999824196
      z: 0.0186821054667
    orientation: 
      x: -0.00292539163801
      y: 0.000965519524981
      z: -0.0177313962363
      w: 0.999838040606
  covariance: [0.0, 0.0, 0.0, 0.0, 0.0, 0.0, 0.0, 0.0, 0.0, 0.0, 0.0, 0.0, 0.0, 0.0, 0.0, 0.0, 0.0, 0.0, 0.0, 0.0, 0.0, 0.0, 0.0, 0.0, 0.0, 0.0, 0.0, 0.0, 0.0, 0.0, 0.0, 0.0, 0.0, 0.0, 0.0, 0.0]
twist: 
  twist: 
    linear: 
      x: -0.819222867489
      y: -2.36884880066
      z: -0.998425543308
    angular: 
      x: 0.199302092195
      y: 0.373597711325
      z: -0.455702483654
  covariance: [0.0, 0.0, 0.0, 0.0, 0.0, 0.0, 0.0, 0.0, 0.0, 0.0, 0.0, 0.0, 0.0, 0.0, 0.0, 0.0, 0.0, 0.0, 0.0, 0.0, 0.0, 0.0, 0.0, 0.0, 0.0, 0.0, 0.0, 0.0, 0.0, 0.0, 0.0, 0.0, 0.0, 0.0, 0.0, 0.0]
---
header: 
  seq: 374
  stamp: 
    secs: 1604025499
    nsecs: 138744116
  frame_id: "/camera_init"
child_frame_id: "/aft_mapped"
pose: 
  pose: 
    position: 
      x: 0.0152989700437
      y: -0.00544131267816
      z: 0.0244868025184
    orientation: 
      x: -0.00301893545732
      y: 0.000967493436271
      z: -0.0175864816318
      w: 0.999840320076
  covariance: [0.0, 0.0, 0.0, 0.0, 0.0, 0.0, 0.0, 0.0, 0.0, 0.0, 0.0, 0.0, 0.0, 0.0, 0.0, 0.0, 0.0, 0.0, 0.0, 0.0, 0.0, 0.0, 0.0, 0.0, 0.0, 0.0, 0.0, 0.0, 0.0, 0.0, 0.0, 0.0, 0.0, 0.0, 0.0, 0.0]
twist: 
  twist: 
    linear: 
      x: -0.823995888233
      y: -2.37675666809
      z: -1.00250482559
    angular: 
      x: 0.199479296803
      y: 0.374433457851
      z: -0.455714315176
  covariance: [0.0, 0.0, 0.0, 0.0, 0.0, 0.0, 0.0, 0.0, 0.0, 0.0, 0.0, 0.0, 0.0, 0.0, 0.0, 0.0, 0.0, 0.0, 0.0, 0.0, 0.0, 0.0, 0.0, 0.0, 0.0, 0.0, 0.0, 0.0, 0.0, 0.0, 0.0, 0.0, 0.0, 0.0, 0.0, 0.0]
---
header: 
  seq: 375
  stamp: 
    secs: 1604025499
    nsecs: 340464115
  frame_id: "/camera_init"
child_frame_id: "/aft_mapped"
pose: 
  pose: 
    position: 
      x: 0.0136047815904
      y: -0.00510803004727
      z: 0.0252301618457
    orientation: 
      x: -0.00291323166594
      y: 0.000905679320804
      z: -0.0178625270312
      w: 0.999835797996
  covariance: [0.0, 0.0, 0.0, 0.0, 0.0, 0.0, 0.0, 0.0, 0.0, 0.0, 0.0, 0.0, 0.0, 0.0, 0.0, 0.0, 0.0, 0.0, 0.0, 0.0, 0.0, 0.0, 0.0, 0.0, 0.0, 0.0, 0.0, 0.0, 0.0, 0.0, 0.0, 0.0, 0.0, 0.0, 0.0, 0.0]
twist: 
  twist: 
    linear: 
      x: -0.825053453445
      y: -2.38158965111
      z: -0.999858319759
    angular: 
      x: 0.199269920588
      y: 0.375564455986
      z: -0.456030100584
  covariance: [0.0, 0.0, 0.0, 0.0, 0.0, 0.0, 0.0, 0.0, 0.0, 0.0, 0.0, 0.0, 0.0, 0.0, 0.0, 0.0, 0.0, 0.0, 0.0, 0.0, 0.0, 0.0, 0.0, 0.0, 0.0, 0.0, 0.0, 0.0, 0.0, 0.0, 0.0, 0.0, 0.0, 0.0, 0.0, 0.0]
---
header: 
  seq: 376
  stamp: 
    secs: 1604025499
    nsecs: 542188883
  frame_id: "/camera_init"
child_frame_id: "/aft_mapped"
pose: 
  pose: 
    position: 
      x: 0.0140656419098
      y: -0.0160776972771
      z: 0.00933996960521
    orientation: 
      x: -0.00301424092462
      y: 0.000904295876631
      z: -0.0179298398019
      w: 0.999834294994
  covariance: [0.0, 0.0, 0.0, 0.0, 0.0, 0.0, 0.0, 0.0, 0.0, 0.0, 0.0, 0.0, 0.0, 0.0, 0.0, 0.0, 0.0, 0.0, 0.0, 0.0, 0.0, 0.0, 0.0, 0.0, 0.0, 0.0, 0.0, 0.0, 0.0, 0.0, 0.0, 0.0, 0.0, 0.0, 0.0, 0.0]
twist: 
  twist: 
    linear: 
      x: -0.83499789238
      y: -2.39200758934
      z: -1.00955450535
    angular: 
      x: 0.198989242315
      y: 0.376515954733
      z: -0.456488996744
  covariance: [0.0, 0.0, 0.0, 0.0, 0.0, 0.0, 0.0, 0.0, 0.0, 0.0, 0.0, 0.0, 0.0, 0.0, 0.0, 0.0, 0.0, 0.0, 0.0, 0.0, 0.0, 0.0, 0.0, 0.0, 0.0, 0.0, 0.0, 0.0, 0.0, 0.0, 0.0, 0.0, 0.0, 0.0, 0.0, 0.0]
---
header: 
  seq: 377
  stamp: 
    secs: 1604025499
    nsecs: 743933916
  frame_id: "/camera_init"
child_frame_id: "/aft_mapped"
pose: 
  pose: 
    position: 
      x: 0.0145785678178
      y: -0.012724339962
      z: 0.016784010455
    orientation: 
      x: -0.00319531839453
      y: 0.00096619088468
      z: -0.0174984140954
      w: 0.99984131837
  covariance: [0.0, 0.0, 0.0, 0.0, 0.0, 0.0, 0.0, 0.0, 0.0, 0.0, 0.0, 0.0, 0.0, 0.0, 0.0, 0.0, 0.0, 0.0, 0.0, 0.0, 0.0, 0.0, 0.0, 0.0, 0.0, 0.0, 0.0, 0.0, 0.0, 0.0, 0.0, 0.0, 0.0, 0.0, 0.0, 0.0]
twist: 
  twist: 
    linear: 
      x: -0.834768414497
      y: -2.40137338638
      z: -1.00828802586
    angular: 
      x: 0.198367238045
      y: 0.377585798502
      z: -0.455421209335
  covariance: [0.0, 0.0, 0.0, 0.0, 0.0, 0.0, 0.0, 0.0, 0.0, 0.0, 0.0, 0.0, 0.0, 0.0, 0.0, 0.0, 0.0, 0.0, 0.0, 0.0, 0.0, 0.0, 0.0, 0.0, 0.0, 0.0, 0.0, 0.0, 0.0, 0.0, 0.0, 0.0, 0.0, 0.0, 0.0, 0.0]
---
header: 
  seq: 378
  stamp: 
    secs: 1604025499
    nsecs: 945621967
  frame_id: "/camera_init"
child_frame_id: "/aft_mapped"
pose: 
  pose: 
    position: 
      x: 0.0157313030213
      y: -0.0106707504019
      z: 0.0179799124599
    orientation: 
      x: -0.00316621841106
      y: 0.000964639923812
      z: -0.0175405685805
      w: 0.9998406738
  covariance: [0.0, 0.0, 0.0, 0.0, 0.0, 0.0, 0.0, 0.0, 0.0, 0.0, 0.0, 0.0, 0.0, 0.0, 0.0, 0.0, 0.0, 0.0, 0.0, 0.0, 0.0, 0.0, 0.0, 0.0, 0.0, 0.0, 0.0, 0.0, 0.0, 0.0, 0.0, 0.0, 0.0, 0.0, 0.0, 0.0]
twist: 
  twist: 
    linear: 
      x: -0.830798983574
      y: -2.40805649757
      z: -1.00236487389
    angular: 
      x: 0.197651907802
      y: 0.378753989935
      z: -0.454571276903
  covariance: [0.0, 0.0, 0.0, 0.0, 0.0, 0.0, 0.0, 0.0, 0.0, 0.0, 0.0, 0.0, 0.0, 0.0, 0.0, 0.0, 0.0, 0.0, 0.0, 0.0, 0.0, 0.0, 0.0, 0.0, 0.0, 0.0, 0.0, 0.0, 0.0, 0.0, 0.0, 0.0, 0.0, 0.0, 0.0, 0.0]
---
header: 
  seq: 379
  stamp: 
    secs: 1604025500
    nsecs: 147376060
  frame_id: "/camera_init"
child_frame_id: "/aft_mapped"
pose: 
  pose: 
    position: 
      x: 0.0159524101764
      y: -0.00722055276856
      z: 0.0250336583704
    orientation: 
      x: -0.00324407245373
      y: 0.000968554414793
      z: -0.0175098361624
      w: 0.99984095912
  covariance: [0.0, 0.0, 0.0, 0.0, 0.0, 0.0, 0.0, 0.0, 0.0, 0.0, 0.0, 0.0, 0.0, 0.0, 0.0, 0.0, 0.0, 0.0, 0.0, 0.0, 0.0, 0.0, 0.0, 0.0, 0.0, 0.0, 0.0, 0.0, 0.0, 0.0, 0.0, 0.0, 0.0, 0.0, 0.0, 0.0]
twist: 
  twist: 
    linear: 
      x: -0.835617601871
      y: -2.41881847382
      z: -1.00773608685
    angular: 
      x: 0.196940496564
      y: 0.37983494997
      z: -0.454680502415
  covariance: [0.0, 0.0, 0.0, 0.0, 0.0, 0.0, 0.0, 0.0, 0.0, 0.0, 0.0, 0.0, 0.0, 0.0, 0.0, 0.0, 0.0, 0.0, 0.0, 0.0, 0.0, 0.0, 0.0, 0.0, 0.0, 0.0, 0.0, 0.0, 0.0, 0.0, 0.0, 0.0, 0.0, 0.0, 0.0, 0.0]
---
header: 
  seq: 380
  stamp: 
    secs: 1604025500
    nsecs: 349073887
  frame_id: "/camera_init"
child_frame_id: "/aft_mapped"
pose: 
  pose: 
    position: 
      x: 0.0149220870808
      y: -0.00443239789456
      z: 0.0267521943897
    orientation: 
      x: -0.00324125434662
      y: 0.000850288955171
      z: -0.0176150212579
      w: 0.999839228229
  covariance: [0.0, 0.0, 0.0, 0.0, 0.0, 0.0, 0.0, 0.0, 0.0, 0.0, 0.0, 0.0, 0.0, 0.0, 0.0, 0.0, 0.0, 0.0, 0.0, 0.0, 0.0, 0.0, 0.0, 0.0, 0.0, 0.0, 0.0, 0.0, 0.0, 0.0, 0.0, 0.0, 0.0, 0.0, 0.0, 0.0]
twist: 
  twist: 
    linear: 
      x: -0.836227118969
      y: -2.42597007751
      z: -1.00755298138
    angular: 
      x: 0.196069151163
      y: 0.380959302187
      z: -0.454801827669
  covariance: [0.0, 0.0, 0.0, 0.0, 0.0, 0.0, 0.0, 0.0, 0.0, 0.0, 0.0, 0.0, 0.0, 0.0, 0.0, 0.0, 0.0, 0.0, 0.0, 0.0, 0.0, 0.0, 0.0, 0.0, 0.0, 0.0, 0.0, 0.0, 0.0, 0.0, 0.0, 0.0, 0.0, 0.0, 0.0, 0.0]
---
header: 
  seq: 381
  stamp: 
    secs: 1604025500
    nsecs: 550771952
  frame_id: "/camera_init"
child_frame_id: "/aft_mapped"
pose: 
  pose: 
    position: 
      x: 0.0159944538027
      y: -0.013906551525
      z: 0.0145956706256
    orientation: 
      x: -0.00333645192414
      y: 0.000961848155289
      z: -0.0176025360899
      w: 0.999839033875
  covariance: [0.0, 0.0, 0.0, 0.0, 0.0, 0.0, 0.0, 0.0, 0.0, 0.0, 0.0, 0.0, 0.0, 0.0, 0.0, 0.0, 0.0, 0.0, 0.0, 0.0, 0.0, 0.0, 0.0, 0.0, 0.0, 0.0, 0.0, 0.0, 0.0, 0.0, 0.0, 0.0, 0.0, 0.0, 0.0, 0.0]
twist: 
  twist: 
    linear: 
      x: -0.844699203968
      y: -2.43791079521
      z: -1.01691269875
    angular: 
      x: 0.19513322413
      y: 0.382045418024
      z: -0.454919368029
  covariance: [0.0, 0.0, 0.0, 0.0, 0.0, 0.0, 0.0, 0.0, 0.0, 0.0, 0.0, 0.0, 0.0, 0.0, 0.0, 0.0, 0.0, 0.0, 0.0, 0.0, 0.0, 0.0, 0.0, 0.0, 0.0, 0.0, 0.0, 0.0, 0.0, 0.0, 0.0, 0.0, 0.0, 0.0, 0.0, 0.0]
---
header: 
  seq: 382
  stamp: 
    secs: 1604025500
    nsecs: 752507925
  frame_id: "/camera_init"
child_frame_id: "/aft_mapped"
pose: 
  pose: 
    position: 
      x: 0.0158203616738
      y: -0.0143377147615
      z: 0.0143538471311
    orientation: 
      x: -0.00316619420894
      y: 0.000854302425815
      z: -0.017540057397
      w: 0.999840783209
  covariance: [0.0, 0.0, 0.0, 0.0, 0.0, 0.0, 0.0, 0.0, 0.0, 0.0, 0.0, 0.0, 0.0, 0.0, 0.0, 0.0, 0.0, 0.0, 0.0, 0.0, 0.0, 0.0, 0.0, 0.0, 0.0, 0.0, 0.0, 0.0, 0.0, 0.0, 0.0, 0.0, 0.0, 0.0, 0.0, 0.0]
twist: 
  twist: 
    linear: 
      x: -0.850041627884
      y: -2.44752287865
      z: -1.02279281616
    angular: 
      x: 0.194554448128
      y: 0.382962495089
      z: -0.455228388309
  covariance: [0.0, 0.0, 0.0, 0.0, 0.0, 0.0, 0.0, 0.0, 0.0, 0.0, 0.0, 0.0, 0.0, 0.0, 0.0, 0.0, 0.0, 0.0, 0.0, 0.0, 0.0, 0.0, 0.0, 0.0, 0.0, 0.0, 0.0, 0.0, 0.0, 0.0, 0.0, 0.0, 0.0, 0.0, 0.0, 0.0]
---
header: 
  seq: 383
  stamp: 
    secs: 1604025500
    nsecs: 954247952
  frame_id: "/camera_init"
child_frame_id: "/aft_mapped"
pose: 
  pose: 
    position: 
      x: 0.0158205609769
      y: -0.0125390356407
      z: 0.0185836292803
    orientation: 
      x: -0.00318433496221
      y: 0.000769377824212
      z: -0.0178353041043
      w: 0.99983557148
  covariance: [0.0, 0.0, 0.0, 0.0, 0.0, 0.0, 0.0, 0.0, 0.0, 0.0, 0.0, 0.0, 0.0, 0.0, 0.0, 0.0, 0.0, 0.0, 0.0, 0.0, 0.0, 0.0, 0.0, 0.0, 0.0, 0.0, 0.0, 0.0, 0.0, 0.0, 0.0, 0.0, 0.0, 0.0, 0.0, 0.0]
twist: 
  twist: 
    linear: 
      x: -0.851076483727
      y: -2.45444869995
      z: -1.0218886137
    angular: 
      x: 0.193801164627
      y: 0.38394716382
      z: -0.455897688866
  covariance: [0.0, 0.0, 0.0, 0.0, 0.0, 0.0, 0.0, 0.0, 0.0, 0.0, 0.0, 0.0, 0.0, 0.0, 0.0, 0.0, 0.0, 0.0, 0.0, 0.0, 0.0, 0.0, 0.0, 0.0, 0.0, 0.0, 0.0, 0.0, 0.0, 0.0, 0.0, 0.0, 0.0, 0.0, 0.0, 0.0]
---
header: 
  seq: 384
  stamp: 
    secs: 1604025501
    nsecs: 156131983
  frame_id: "/camera_init"
child_frame_id: "/aft_mapped"
pose: 
  pose: 
    position: 
      x: 0.0160267613828
      y: -0.00899192132056
      z: 0.0223592035472
    orientation: 
      x: -0.00323880522107
      y: 0.000924899344076
      z: -0.0177877990599
      w: 0.999836111023
  covariance: [0.0, 0.0, 0.0, 0.0, 0.0, 0.0, 0.0, 0.0, 0.0, 0.0, 0.0, 0.0, 0.0, 0.0, 0.0, 0.0, 0.0, 0.0, 0.0, 0.0, 0.0, 0.0, 0.0, 0.0, 0.0, 0.0, 0.0, 0.0, 0.0, 0.0, 0.0, 0.0, 0.0, 0.0, 0.0, 0.0]
twist: 
  twist: 
    linear: 
      x: -0.859526276588
      y: -2.46729135513
      z: -1.03121781349
    angular: 
      x: 0.192821860313
      y: 0.385231912136
      z: -0.45680591464
  covariance: [0.0, 0.0, 0.0, 0.0, 0.0, 0.0, 0.0, 0.0, 0.0, 0.0, 0.0, 0.0, 0.0, 0.0, 0.0, 0.0, 0.0, 0.0, 0.0, 0.0, 0.0, 0.0, 0.0, 0.0, 0.0, 0.0, 0.0, 0.0, 0.0, 0.0, 0.0, 0.0, 0.0, 0.0, 0.0, 0.0]
---
header: 
  seq: 385
  stamp: 
    secs: 1604025501
    nsecs: 357728958
  frame_id: "/camera_init"
child_frame_id: "/aft_mapped"
pose: 
  pose: 
    position: 
      x: 0.0180988702923
      y: -0.00542944064364
      z: 0.0266796033829
    orientation: 
      x: -0.00345294436118
      y: 0.000963013828419
      z: -0.0174003143205
      w: 0.999842176967
  covariance: [0.0, 0.0, 0.0, 0.0, 0.0, 0.0, 0.0, 0.0, 0.0, 0.0, 0.0, 0.0, 0.0, 0.0, 0.0, 0.0, 0.0, 0.0, 0.0, 0.0, 0.0, 0.0, 0.0, 0.0, 0.0, 0.0, 0.0, 0.0, 0.0, 0.0, 0.0, 0.0, 0.0, 0.0, 0.0, 0.0]
twist: 
  twist: 
    linear: 
      x: -0.863407611847
      y: -2.47835874557
      z: -1.03362572193
    angular: 
      x: 0.192001208663
      y: 0.386337161064
      z: -0.457377821207
  covariance: [0.0, 0.0, 0.0, 0.0, 0.0, 0.0, 0.0, 0.0, 0.0, 0.0, 0.0, 0.0, 0.0, 0.0, 0.0, 0.0, 0.0, 0.0, 0.0, 0.0, 0.0, 0.0, 0.0, 0.0, 0.0, 0.0, 0.0, 0.0, 0.0, 0.0, 0.0, 0.0, 0.0, 0.0, 0.0, 0.0]
---
header: 
  seq: 386
  stamp: 
    secs: 1604025501
    nsecs: 559391022
  frame_id: "/camera_init"
child_frame_id: "/aft_mapped"
pose: 
  pose: 
    position: 
      x: 0.0183288641274
      y: -0.0049292515032
      z: 0.0283631402999
    orientation: 
      x: -0.00329733286514
      y: 0.00111347806646
      z: -0.0174069449482
      w: 0.999842430601
  covariance: [0.0, 0.0, 0.0, 0.0, 0.0, 0.0, 0.0, 0.0, 0.0, 0.0, 0.0, 0.0, 0.0, 0.0, 0.0, 0.0, 0.0, 0.0, 0.0, 0.0, 0.0, 0.0, 0.0, 0.0, 0.0, 0.0, 0.0, 0.0, 0.0, 0.0, 0.0, 0.0, 0.0, 0.0, 0.0, 0.0]
twist: 
  twist: 
    linear: 
      x: -0.863205492496
      y: -2.48625326157
      z: -1.03011214733
    angular: 
      x: 0.191459357738
      y: 0.387940704823
      z: -0.458264172077
  covariance: [0.0, 0.0, 0.0, 0.0, 0.0, 0.0, 0.0, 0.0, 0.0, 0.0, 0.0, 0.0, 0.0, 0.0, 0.0, 0.0, 0.0, 0.0, 0.0, 0.0, 0.0, 0.0, 0.0, 0.0, 0.0, 0.0, 0.0, 0.0, 0.0, 0.0, 0.0, 0.0, 0.0, 0.0, 0.0, 0.0]
---
header: 
  seq: 387
  stamp: 
    secs: 1604025501
    nsecs: 761096954
  frame_id: "/camera_init"
child_frame_id: "/aft_mapped"
pose: 
  pose: 
    position: 
      x: 0.0188397485763
      y: -0.003884407226
      z: 0.0254369750619
    orientation: 
      x: -0.00310838979936
      y: 0.00116393452792
      z: -0.0175067368062
      w: 0.999841236065
  covariance: [0.0, 0.0, 0.0, 0.0, 0.0, 0.0, 0.0, 0.0, 0.0, 0.0, 0.0, 0.0, 0.0, 0.0, 0.0, 0.0, 0.0, 0.0, 0.0, 0.0, 0.0, 0.0, 0.0, 0.0, 0.0, 0.0, 0.0, 0.0, 0.0, 0.0, 0.0, 0.0, 0.0, 0.0, 0.0, 0.0]
twist: 
  twist: 
    linear: 
      x: -0.860013961792
      y: -2.4914495945
      z: -1.02191674709
    angular: 
      x: 0.191511079669
      y: 0.389565855265
      z: -0.459304213524
  covariance: [0.0, 0.0, 0.0, 0.0, 0.0, 0.0, 0.0, 0.0, 0.0, 0.0, 0.0, 0.0, 0.0, 0.0, 0.0, 0.0, 0.0, 0.0, 0.0, 0.0, 0.0, 0.0, 0.0, 0.0, 0.0, 0.0, 0.0, 0.0, 0.0, 0.0, 0.0, 0.0, 0.0, 0.0, 0.0, 0.0]
---
header: 
  seq: 388
  stamp: 
    secs: 1604025501
    nsecs: 962830067
  frame_id: "/camera_init"
child_frame_id: "/aft_mapped"
pose: 
  pose: 
    position: 
      x: 0.0192089341581
      y: -0.0133211342618
      z: 0.0113165248185
    orientation: 
      x: -0.00322490339065
      y: 0.0012934121344
      z: -0.0175340689263
      w: 0.999840228992
  covariance: [0.0, 0.0, 0.0, 0.0, 0.0, 0.0, 0.0, 0.0, 0.0, 0.0, 0.0, 0.0, 0.0, 0.0, 0.0, 0.0, 0.0, 0.0, 0.0, 0.0, 0.0, 0.0, 0.0, 0.0, 0.0, 0.0, 0.0, 0.0, 0.0, 0.0, 0.0, 0.0, 0.0, 0.0, 0.0, 0.0]
twist: 
  twist: 
    linear: 
      x: -0.867534816265
      y: -2.50259256363
      z: -1.02756738663
    angular: 
      x: 0.191612228751
      y: 0.391060620546
      z: -0.460119485855
  covariance: [0.0, 0.0, 0.0, 0.0, 0.0, 0.0, 0.0, 0.0, 0.0, 0.0, 0.0, 0.0, 0.0, 0.0, 0.0, 0.0, 0.0, 0.0, 0.0, 0.0, 0.0, 0.0, 0.0, 0.0, 0.0, 0.0, 0.0, 0.0, 0.0, 0.0, 0.0, 0.0, 0.0, 0.0, 0.0, 0.0]
---
header: 
  seq: 389
  stamp: 
    secs: 1604025502
    nsecs: 164583921
  frame_id: "/camera_init"
child_frame_id: "/aft_mapped"
pose: 
  pose: 
    position: 
      x: 0.0180345717818
      y: -0.0110016996041
      z: 0.00983969867229
    orientation: 
      x: -0.00280649332136
      y: 0.00102601967579
      z: -0.0179674235596
      w: 0.999834107525
  covariance: [0.0, 0.0, 0.0, 0.0, 0.0, 0.0, 0.0, 0.0, 0.0, 0.0, 0.0, 0.0, 0.0, 0.0, 0.0, 0.0, 0.0, 0.0, 0.0, 0.0, 0.0, 0.0, 0.0, 0.0, 0.0, 0.0, 0.0, 0.0, 0.0, 0.0, 0.0, 0.0, 0.0, 0.0, 0.0, 0.0]
twist: 
  twist: 
    linear: 
      x: -0.875559985638
      y: -2.50934100151
      z: -1.0313013792
    angular: 
      x: 0.192114427686
      y: 0.391193062067
      z: -0.461719244719
  covariance: [0.0, 0.0, 0.0, 0.0, 0.0, 0.0, 0.0, 0.0, 0.0, 0.0, 0.0, 0.0, 0.0, 0.0, 0.0, 0.0, 0.0, 0.0, 0.0, 0.0, 0.0, 0.0, 0.0, 0.0, 0.0, 0.0, 0.0, 0.0, 0.0, 0.0, 0.0, 0.0, 0.0, 0.0, 0.0, 0.0]
---
header: 
  seq: 390
  stamp: 
    secs: 1604025502
    nsecs: 366285086
  frame_id: "/camera_init"
child_frame_id: "/aft_mapped"
pose: 
  pose: 
    position: 
      x: 0.0206392742693
      y: -0.011525394395
      z: 0.00837153848261
    orientation: 
      x: -0.00299429755605
      y: 0.00145835063202
      z: -0.0181609826698
      w: 0.999829528522
  covariance: [0.0, 0.0, 0.0, 0.0, 0.0, 0.0, 0.0, 0.0, 0.0, 0.0, 0.0, 0.0, 0.0, 0.0, 0.0, 0.0, 0.0, 0.0, 0.0, 0.0, 0.0, 0.0, 0.0, 0.0, 0.0, 0.0, 0.0, 0.0, 0.0, 0.0, 0.0, 0.0, 0.0, 0.0, 0.0, 0.0]
twist: 
  twist: 
    linear: 
      x: -0.888911485672
      y: -2.51582074165
      z: -1.03652346134
    angular: 
      x: 0.193008795381
      y: 0.390798807144
      z: -0.464776277542
  covariance: [0.0, 0.0, 0.0, 0.0, 0.0, 0.0, 0.0, 0.0, 0.0, 0.0, 0.0, 0.0, 0.0, 0.0, 0.0, 0.0, 0.0, 0.0, 0.0, 0.0, 0.0, 0.0, 0.0, 0.0, 0.0, 0.0, 0.0, 0.0, 0.0, 0.0, 0.0, 0.0, 0.0, 0.0, 0.0, 0.0]
---
header: 
  seq: 391
  stamp: 
    secs: 1604025502
    nsecs: 568602085
  frame_id: "/camera_init"
child_frame_id: "/aft_mapped"
pose: 
  pose: 
    position: 
      x: 0.0187008082867
      y: -0.00757434731349
      z: 0.0154306199402
    orientation: 
      x: -0.00300712936241
      y: 0.00126950807521
      z: -0.0182551728849
      w: 0.999828032306
  covariance: [0.0, 0.0, 0.0, 0.0, 0.0, 0.0, 0.0, 0.0, 0.0, 0.0, 0.0, 0.0, 0.0, 0.0, 0.0, 0.0, 0.0, 0.0, 0.0, 0.0, 0.0, 0.0, 0.0, 0.0, 0.0, 0.0, 0.0, 0.0, 0.0, 0.0, 0.0, 0.0, 0.0, 0.0, 0.0, 0.0]
twist: 
  twist: 
    linear: 
      x: -0.912644147873
      y: -2.52900338173
      z: -1.05266857147
    angular: 
      x: 0.194598987699
      y: 0.390521794558
      z: -0.468212485313
  covariance: [0.0, 0.0, 0.0, 0.0, 0.0, 0.0, 0.0, 0.0, 0.0, 0.0, 0.0, 0.0, 0.0, 0.0, 0.0, 0.0, 0.0, 0.0, 0.0, 0.0, 0.0, 0.0, 0.0, 0.0, 0.0, 0.0, 0.0, 0.0, 0.0, 0.0, 0.0, 0.0, 0.0, 0.0, 0.0, 0.0]
---
header: 
  seq: 392
  stamp: 
    secs: 1604025502
    nsecs: 769705057
  frame_id: "/camera_init"
child_frame_id: "/aft_mapped"
pose: 
  pose: 
    position: 
      x: 0.0165404323488
      y: -0.00566197326407
      z: 0.0175849106163
    orientation: 
      x: -0.00274885553229
      y: 0.00115440054531
      z: -0.018421293341
      w: 0.999825868391
  covariance: [0.0, 0.0, 0.0, 0.0, 0.0, 0.0, 0.0, 0.0, 0.0, 0.0, 0.0, 0.0, 0.0, 0.0, 0.0, 0.0, 0.0, 0.0, 0.0, 0.0, 0.0, 0.0, 0.0, 0.0, 0.0, 0.0, 0.0, 0.0, 0.0, 0.0, 0.0, 0.0, 0.0, 0.0, 0.0, 0.0]
twist: 
  twist: 
    linear: 
      x: -0.926901638508
      y: -2.53120160103
      z: -1.05615437031
    angular: 
      x: 0.196395754814
      y: 0.389663904905
      z: -0.472135186195
  covariance: [0.0, 0.0, 0.0, 0.0, 0.0, 0.0, 0.0, 0.0, 0.0, 0.0, 0.0, 0.0, 0.0, 0.0, 0.0, 0.0, 0.0, 0.0, 0.0, 0.0, 0.0, 0.0, 0.0, 0.0, 0.0, 0.0, 0.0, 0.0, 0.0, 0.0, 0.0, 0.0, 0.0, 0.0, 0.0, 0.0]
---
header: 
  seq: 393
  stamp: 
    secs: 1604025502
    nsecs: 971489906
  frame_id: "/camera_init"
child_frame_id: "/aft_mapped"
pose: 
  pose: 
    position: 
      x: 0.0170631054789
      y: -0.00278453272767
      z: 0.0253243763
    orientation: 
      x: -0.00299288170959
      y: 0.00115395729448
      z: -0.0181464214896
      w: 0.999830194797
  covariance: [0.0, 0.0, 0.0, 0.0, 0.0, 0.0, 0.0, 0.0, 0.0, 0.0, 0.0, 0.0, 0.0, 0.0, 0.0, 0.0, 0.0, 0.0, 0.0, 0.0, 0.0, 0.0, 0.0, 0.0, 0.0, 0.0, 0.0, 0.0, 0.0, 0.0, 0.0, 0.0, 0.0, 0.0, 0.0, 0.0]
twist: 
  twist: 
    linear: 
      x: -0.935968756676
      y: -2.53019738197
      z: -1.05336213112
    angular: 
      x: 0.197836726904
      y: 0.38919210434
      z: -0.47581410408
  covariance: [0.0, 0.0, 0.0, 0.0, 0.0, 0.0, 0.0, 0.0, 0.0, 0.0, 0.0, 0.0, 0.0, 0.0, 0.0, 0.0, 0.0, 0.0, 0.0, 0.0, 0.0, 0.0, 0.0, 0.0, 0.0, 0.0, 0.0, 0.0, 0.0, 0.0, 0.0, 0.0, 0.0, 0.0, 0.0, 0.0]
---
header: 
  seq: 394
  stamp: 
    secs: 1604025503
    nsecs: 173204899
  frame_id: "/camera_init"
child_frame_id: "/aft_mapped"
pose: 
  pose: 
    position: 
      x: 0.0163608007133
      y: -0.0139581086114
      z: 0.0110900364816
    orientation: 
      x: -0.0029495859143
      y: 0.00112723754549
      z: -0.0184696413712
      w: 0.999824435402
  covariance: [0.0, 0.0, 0.0, 0.0, 0.0, 0.0, 0.0, 0.0, 0.0, 0.0, 0.0, 0.0, 0.0, 0.0, 0.0, 0.0, 0.0, 0.0, 0.0, 0.0, 0.0, 0.0, 0.0, 0.0, 0.0, 0.0, 0.0, 0.0, 0.0, 0.0, 0.0, 0.0, 0.0, 0.0, 0.0, 0.0]
twist: 
  twist: 
    linear: 
      x: -0.955237269402
      y: -2.53504061699
      z: -1.06165206432
    angular: 
      x: 0.198597326875
      y: 0.388860672712
      z: -0.479824006557
  covariance: [0.0, 0.0, 0.0, 0.0, 0.0, 0.0, 0.0, 0.0, 0.0, 0.0, 0.0, 0.0, 0.0, 0.0, 0.0, 0.0, 0.0, 0.0, 0.0, 0.0, 0.0, 0.0, 0.0, 0.0, 0.0, 0.0, 0.0, 0.0, 0.0, 0.0, 0.0, 0.0, 0.0, 0.0, 0.0, 0.0]
---
header: 
  seq: 395
  stamp: 
    secs: 1604025503
    nsecs: 374870062
  frame_id: "/camera_init"
child_frame_id: "/aft_mapped"
pose: 
  pose: 
    position: 
      x: 0.014136813581
      y: -0.0136977089569
      z: 0.0164376366884
    orientation: 
      x: -0.00288993167631
      y: 0.0011300563551
      z: -0.0186828859833
      w: 0.999820644435
  covariance: [0.0, 0.0, 0.0, 0.0, 0.0, 0.0, 0.0, 0.0, 0.0, 0.0, 0.0, 0.0, 0.0, 0.0, 0.0, 0.0, 0.0, 0.0, 0.0, 0.0, 0.0, 0.0, 0.0, 0.0, 0.0, 0.0, 0.0, 0.0, 0.0, 0.0, 0.0, 0.0, 0.0, 0.0, 0.0, 0.0]
twist: 
  twist: 
    linear: 
      x: -0.970084309578
      y: -2.53749036789
      z: -1.0634868145
    angular: 
      x: 0.199169933796
      y: 0.388759940863
      z: -0.483226150274
  covariance: [0.0, 0.0, 0.0, 0.0, 0.0, 0.0, 0.0, 0.0, 0.0, 0.0, 0.0, 0.0, 0.0, 0.0, 0.0, 0.0, 0.0, 0.0, 0.0, 0.0, 0.0, 0.0, 0.0, 0.0, 0.0, 0.0, 0.0, 0.0, 0.0, 0.0, 0.0, 0.0, 0.0, 0.0, 0.0, 0.0]
---
header: 
  seq: 396
  stamp: 
    secs: 1604025503
    nsecs: 576570988
  frame_id: "/camera_init"
child_frame_id: "/aft_mapped"
pose: 
  pose: 
    position: 
      x: 0.0140501782298
      y: -0.0107089495286
      z: 0.0184912495315
    orientation: 
      x: -0.00292391847723
      y: 0.00124790963115
      z: -0.0188091458286
      w: 0.999818038173
  covariance: [0.0, 0.0, 0.0, 0.0, 0.0, 0.0, 0.0, 0.0, 0.0, 0.0, 0.0, 0.0, 0.0, 0.0, 0.0, 0.0, 0.0, 0.0, 0.0, 0.0, 0.0, 0.0, 0.0, 0.0, 0.0, 0.0, 0.0, 0.0, 0.0, 0.0, 0.0, 0.0, 0.0, 0.0, 0.0, 0.0]
twist: 
  twist: 
    linear: 
      x: -0.992447495461
      y: -2.54534769058
      z: -1.07685160637
    angular: 
      x: 0.199526131153
      y: 0.389248222113
      z: -0.486144691706
  covariance: [0.0, 0.0, 0.0, 0.0, 0.0, 0.0, 0.0, 0.0, 0.0, 0.0, 0.0, 0.0, 0.0, 0.0, 0.0, 0.0, 0.0, 0.0, 0.0, 0.0, 0.0, 0.0, 0.0, 0.0, 0.0, 0.0, 0.0, 0.0, 0.0, 0.0, 0.0, 0.0, 0.0, 0.0, 0.0, 0.0]
---
header: 
  seq: 397
  stamp: 
    secs: 1604025503
    nsecs: 778320074
  frame_id: "/camera_init"
child_frame_id: "/aft_mapped"
pose: 
  pose: 
    position: 
      x: 0.0162140354514
      y: -0.00807502586395
      z: 0.023243477568
    orientation: 
      x: -0.00312578682008
      y: 0.00127626055236
      z: -0.0186109440559
      w: 0.999821100686
  covariance: [0.0, 0.0, 0.0, 0.0, 0.0, 0.0, 0.0, 0.0, 0.0, 0.0, 0.0, 0.0, 0.0, 0.0, 0.0, 0.0, 0.0, 0.0, 0.0, 0.0, 0.0, 0.0, 0.0, 0.0, 0.0, 0.0, 0.0, 0.0, 0.0, 0.0, 0.0, 0.0, 0.0, 0.0, 0.0, 0.0]
twist: 
  twist: 
    linear: 
      x: -1.00889670849
      y: -2.55071640015
      z: -1.08275485039
    angular: 
      x: 0.199477627873
      y: 0.389698833227
      z: -0.488892495632
  covariance: [0.0, 0.0, 0.0, 0.0, 0.0, 0.0, 0.0, 0.0, 0.0, 0.0, 0.0, 0.0, 0.0, 0.0, 0.0, 0.0, 0.0, 0.0, 0.0, 0.0, 0.0, 0.0, 0.0, 0.0, 0.0, 0.0, 0.0, 0.0, 0.0, 0.0, 0.0, 0.0, 0.0, 0.0, 0.0, 0.0]
---
header: 
  seq: 398
  stamp: 
    secs: 1604025503
    nsecs: 980019093
  frame_id: "/camera_init"
child_frame_id: "/aft_mapped"
pose: 
  pose: 
    position: 
      x: 0.0159183330834
      y: -0.00843342579901
      z: 0.0277458280325
    orientation: 
      x: -0.00296851890358
      y: 0.00113154772376
      z: -0.0188425368753
      w: 0.999817416481
  covariance: [0.0, 0.0, 0.0, 0.0, 0.0, 0.0, 0.0, 0.0, 0.0, 0.0, 0.0, 0.0, 0.0, 0.0, 0.0, 0.0, 0.0, 0.0, 0.0, 0.0, 0.0, 0.0, 0.0, 0.0, 0.0, 0.0, 0.0, 0.0, 0.0, 0.0, 0.0, 0.0, 0.0, 0.0, 0.0, 0.0]
twist: 
  twist: 
    linear: 
      x: -1.02180290222
      y: -2.55686426163
      z: -1.08169448376
    angular: 
      x: 0.19927187264
      y: 0.389819592237
      z: -0.492320328951
  covariance: [0.0, 0.0, 0.0, 0.0, 0.0, 0.0, 0.0, 0.0, 0.0, 0.0, 0.0, 0.0, 0.0, 0.0, 0.0, 0.0, 0.0, 0.0, 0.0, 0.0, 0.0, 0.0, 0.0, 0.0, 0.0, 0.0, 0.0, 0.0, 0.0, 0.0, 0.0, 0.0, 0.0, 0.0, 0.0, 0.0]
---
header: 
  seq: 399
  stamp: 
    secs: 1604025504
    nsecs: 181785107
  frame_id: "/camera_init"
child_frame_id: "/aft_mapped"
pose: 
  pose: 
    position: 
      x: 0.0137214297429
      y: -0.00512739783153
      z: 0.0298091415316
    orientation: 
      x: -0.00288541157284
      y: 0.00131815419733
      z: -0.018934657514
      w: 0.999815690822
  covariance: [0.0, 0.0, 0.0, 0.0, 0.0, 0.0, 0.0, 0.0, 0.0, 0.0, 0.0, 0.0, 0.0, 0.0, 0.0, 0.0, 0.0, 0.0, 0.0, 0.0, 0.0, 0.0, 0.0, 0.0, 0.0, 0.0, 0.0, 0.0, 0.0, 0.0, 0.0, 0.0, 0.0, 0.0, 0.0, 0.0]
twist: 
  twist: 
    linear: 
      x: -1.03025722504
      y: -2.5602183342
      z: -1.07487428188
    angular: 
      x: 0.19907848537
      y: 0.39009848237
      z: -0.495666265488
  covariance: [0.0, 0.0, 0.0, 0.0, 0.0, 0.0, 0.0, 0.0, 0.0, 0.0, 0.0, 0.0, 0.0, 0.0, 0.0, 0.0, 0.0, 0.0, 0.0, 0.0, 0.0, 0.0, 0.0, 0.0, 0.0, 0.0, 0.0, 0.0, 0.0, 0.0, 0.0, 0.0, 0.0, 0.0, 0.0, 0.0]
---
header: 
  seq: 400
  stamp: 
    secs: 1604025504
    nsecs: 383506060
  frame_id: "/camera_init"
child_frame_id: "/aft_mapped"
pose: 
  pose: 
    position: 
      x: 0.0129395090044
      y: -0.0139970742166
      z: 0.0152731109411
    orientation: 
      x: -0.00275433925436
      y: 0.00113497053429
      z: -0.0185848385997
      w: 0.999822848924
  covariance: [0.0, 0.0, 0.0, 0.0, 0.0, 0.0, 0.0, 0.0, 0.0, 0.0, 0.0, 0.0, 0.0, 0.0, 0.0, 0.0, 0.0, 0.0, 0.0, 0.0, 0.0, 0.0, 0.0, 0.0, 0.0, 0.0, 0.0, 0.0, 0.0, 0.0, 0.0, 0.0, 0.0, 0.0, 0.0, 0.0]
twist: 
  twist: 
    linear: 
      x: -1.04971051216
      y: -2.5689034462
      z: -1.07847476006
    angular: 
      x: 0.198352843523
      y: 0.390337109566
      z: -0.499386012554
  covariance: [0.0, 0.0, 0.0, 0.0, 0.0, 0.0, 0.0, 0.0, 0.0, 0.0, 0.0, 0.0, 0.0, 0.0, 0.0, 0.0, 0.0, 0.0, 0.0, 0.0, 0.0, 0.0, 0.0, 0.0, 0.0, 0.0, 0.0, 0.0, 0.0, 0.0, 0.0, 0.0, 0.0, 0.0, 0.0, 0.0]
---
header: 
  seq: 401
  stamp: 
    secs: 1604025504
    nsecs: 585169077
  frame_id: "/camera_init"
child_frame_id: "/aft_mapped"
pose: 
  pose: 
    position: 
      x: 0.0165692511946
      y: -0.0100575434044
      z: 0.0217261705548
    orientation: 
      x: -0.00271829562546
      y: 0.0012203248246
      z: -0.0180388834138
      w: 0.999832846211
  covariance: [0.0, 0.0, 0.0, 0.0, 0.0, 0.0, 0.0, 0.0, 0.0, 0.0, 0.0, 0.0, 0.0, 0.0, 0.0, 0.0, 0.0, 0.0, 0.0, 0.0, 0.0, 0.0, 0.0, 0.0, 0.0, 0.0, 0.0, 0.0, 0.0, 0.0, 0.0, 0.0, 0.0, 0.0, 0.0, 0.0]
twist: 
  twist: 
    linear: 
      x: -1.05662250519
      y: -2.57263255119
      z: -1.06437385082
    angular: 
      x: 0.197495698929
      y: 0.39035102725
      z: -0.501882076263
  covariance: [0.0, 0.0, 0.0, 0.0, 0.0, 0.0, 0.0, 0.0, 0.0, 0.0, 0.0, 0.0, 0.0, 0.0, 0.0, 0.0, 0.0, 0.0, 0.0, 0.0, 0.0, 0.0, 0.0, 0.0, 0.0, 0.0, 0.0, 0.0, 0.0, 0.0, 0.0, 0.0, 0.0, 0.0, 0.0, 0.0]
---
header: 
  seq: 402
  stamp: 
    secs: 1604025504
    nsecs: 786912918
  frame_id: "/camera_init"
child_frame_id: "/aft_mapped"
pose: 
  pose: 
    position: 
      x: 0.0171338915825
      y: -0.00747817894444
      z: 0.0257449820638
    orientation: 
      x: -0.00264086712757
      y: 0.00116132954808
      z: -0.0178701465888
      w: 0.999836154075
  covariance: [0.0, 0.0, 0.0, 0.0, 0.0, 0.0, 0.0, 0.0, 0.0, 0.0, 0.0, 0.0, 0.0, 0.0, 0.0, 0.0, 0.0, 0.0, 0.0, 0.0, 0.0, 0.0, 0.0, 0.0, 0.0, 0.0, 0.0, 0.0, 0.0, 0.0, 0.0, 0.0, 0.0, 0.0, 0.0, 0.0]
twist: 
  twist: 
    linear: 
      x: -1.07217419147
      y: -2.58132648468
      z: -1.06252360344
    angular: 
      x: 0.196479022503
      y: 0.390155315399
      z: -0.504530906677
  covariance: [0.0, 0.0, 0.0, 0.0, 0.0, 0.0, 0.0, 0.0, 0.0, 0.0, 0.0, 0.0, 0.0, 0.0, 0.0, 0.0, 0.0, 0.0, 0.0, 0.0, 0.0, 0.0, 0.0, 0.0, 0.0, 0.0, 0.0, 0.0, 0.0, 0.0, 0.0, 0.0, 0.0, 0.0, 0.0, 0.0]
---
header: 
  seq: 403
  stamp: 
    secs: 1604025504
    nsecs: 988650084
  frame_id: "/camera_init"
child_frame_id: "/aft_mapped"
pose: 
  pose: 
    position: 
      x: 0.0183453895152
      y: -0.00429281638935
      z: 0.0294416844845
    orientation: 
      x: -0.0028308727442
      y: 0.00109601216218
      z: -0.0179899539422
      w: 0.999833559386
  covariance: [0.0, 0.0, 0.0, 0.0, 0.0, 0.0, 0.0, 0.0, 0.0, 0.0, 0.0, 0.0, 0.0, 0.0, 0.0, 0.0, 0.0, 0.0, 0.0, 0.0, 0.0, 0.0, 0.0, 0.0, 0.0, 0.0, 0.0, 0.0, 0.0, 0.0, 0.0, 0.0, 0.0, 0.0, 0.0, 0.0]
twist: 
  twist: 
    linear: 
      x: -1.08201301098
      y: -2.58674860001
      z: -1.05489599705
    angular: 
      x: 0.195490762591
      y: 0.390101850033
      z: -0.506785333157
  covariance: [0.0, 0.0, 0.0, 0.0, 0.0, 0.0, 0.0, 0.0, 0.0, 0.0, 0.0, 0.0, 0.0, 0.0, 0.0, 0.0, 0.0, 0.0, 0.0, 0.0, 0.0, 0.0, 0.0, 0.0, 0.0, 0.0, 0.0, 0.0, 0.0, 0.0, 0.0, 0.0, 0.0, 0.0, 0.0, 0.0]
---
header: 
  seq: 404
  stamp: 
    secs: 1604025505
    nsecs: 190352917
  frame_id: "/camera_init"
child_frame_id: "/aft_mapped"
pose: 
  pose: 
    position: 
      x: 0.0175476092845
      y: -0.0128140058368
      z: 0.0177087746561
    orientation: 
      x: -0.00284313587085
      y: 0.000982543793469
      z: -0.0176463576252
      w: 0.999839765787
  covariance: [0.0, 0.0, 0.0, 0.0, 0.0, 0.0, 0.0, 0.0, 0.0, 0.0, 0.0, 0.0, 0.0, 0.0, 0.0, 0.0, 0.0, 0.0, 0.0, 0.0, 0.0, 0.0, 0.0, 0.0, 0.0, 0.0, 0.0, 0.0, 0.0, 0.0, 0.0, 0.0, 0.0, 0.0, 0.0, 0.0]
twist: 
  twist: 
    linear: 
      x: -1.09912765026
      y: -2.59718132019
      z: -1.05587804317
    angular: 
      x: 0.194735333323
      y: 0.389922469854
      z: -0.508805751801
  covariance: [0.0, 0.0, 0.0, 0.0, 0.0, 0.0, 0.0, 0.0, 0.0, 0.0, 0.0, 0.0, 0.0, 0.0, 0.0, 0.0, 0.0, 0.0, 0.0, 0.0, 0.0, 0.0, 0.0, 0.0, 0.0, 0.0, 0.0, 0.0, 0.0, 0.0, 0.0, 0.0, 0.0, 0.0, 0.0, 0.0]
---
header: 
  seq: 405
  stamp: 
    secs: 1604025505
    nsecs: 392086983
  frame_id: "/camera_init"
child_frame_id: "/aft_mapped"
pose: 
  pose: 
    position: 
      x: 0.0187630970031
      y: -0.0116870207712
      z: 0.0194618981332
    orientation: 
      x: -0.00286855029575
      y: 0.00101449187251
      z: -0.017731096844
      w: 0.999838162119
  covariance: [0.0, 0.0, 0.0, 0.0, 0.0, 0.0, 0.0, 0.0, 0.0, 0.0, 0.0, 0.0, 0.0, 0.0, 0.0, 0.0, 0.0, 0.0, 0.0, 0.0, 0.0, 0.0, 0.0, 0.0, 0.0, 0.0, 0.0, 0.0, 0.0, 0.0, 0.0, 0.0, 0.0, 0.0, 0.0, 0.0]
twist: 
  twist: 
    linear: 
      x: -1.10467541218
      y: -2.60302591324
      z: -1.04895758629
    angular: 
      x: 0.19322925806
      y: 0.390136539936
      z: -0.511049926281
  covariance: [0.0, 0.0, 0.0, 0.0, 0.0, 0.0, 0.0, 0.0, 0.0, 0.0, 0.0, 0.0, 0.0, 0.0, 0.0, 0.0, 0.0, 0.0, 0.0, 0.0, 0.0, 0.0, 0.0, 0.0, 0.0, 0.0, 0.0, 0.0, 0.0, 0.0, 0.0, 0.0, 0.0, 0.0, 0.0, 0.0]
---
header: 
  seq: 406
  stamp: 
    secs: 1604025505
    nsecs: 593805075
  frame_id: "/camera_init"
child_frame_id: "/aft_mapped"
pose: 
  pose: 
    position: 
      x: 0.0185720175505
      y: 0.00499312765896
      z: 0.0405243560672
    orientation: 
      x: -0.00298768705946
      y: 0.00109634954862
      z: -0.0177766396886
      w: 0.999836918115
  covariance: [0.0, 0.0, 0.0, 0.0, 0.0, 0.0, 0.0, 0.0, 0.0, 0.0, 0.0, 0.0, 0.0, 0.0, 0.0, 0.0, 0.0, 0.0, 0.0, 0.0, 0.0, 0.0, 0.0, 0.0, 0.0, 0.0, 0.0, 0.0, 0.0, 0.0, 0.0, 0.0, 0.0, 0.0, 0.0, 0.0]
twist: 
  twist: 
    linear: 
      x: -1.09125387669
      y: -2.59724283218
